timestamp,ref_timestamp,ref_lat,ref_lon,x,y,z,delta_xy[0],delta_xy[1],delta_z,vx,vy,vz,z_deriv,delta_vxy[0],delta_vxy[1],delta_vz,ax,ay,az,yaw,ref_alt,dist_bottom,dist_bottom_rate,eph,epv,evh,evv,vxy_max,vz_max,hagl_min,hagl_max,xy_valid,z_valid,v_xy_valid,v_z_valid,xy_reset_counter,z_reset_counter,vxy_reset_counter,vz_reset_counter,xy_global,z_global,dist_bottom_valid
143845877,15615477,34.3492467,-106.8858256,-0.6434475,0.6990974,-0.11729659,0.0012156666,-0.0008904127,0.0,-0.02717318,-0.0011552188,-0.014512476,-0.00689142,-0.02239259,0.01820406,0.12195557,-0.00881086,-0.009149173,-0.0071154214,-0.0917545,1476.9989,0.11244592,0.014512476,0.2852187,0.23841271,0.14975925,0.10051331,inf,inf,inf,inf,1,1,1,1,2,0,2,2,1,1,0
143941884,15615477,34.3492467,-106.8858256,-0.64569247,0.69847476,-0.11696164,0.0012156666,-0.0008904127,0.0,-0.026761366,-0.0017877584,-0.013919022,-0.0056586266,-0.02239259,0.01820406,0.12195557,-0.016269986,0.0025968014,0.005633876,-0.09170324,1476.9989,0.1,0.013919022,0.27331442,0.23776866,0.1450607,0.10004985,inf,inf,inf,inf,1,1,1,1,2,0,2,2,1,1,0
144045904,15615477,34.3492467,-106.8858256,-0.6481279,0.6977997,-0.1194804,0.0012156666,-0.0008904127,0.0,-0.026799792,-0.002483736,-0.013599771,-0.00752399,-0.02239259,0.01820406,0.12195557,-0.009371306,-0.019025264,-0.007587417,-0.091619566,1476.9989,0.10244289,0.013599771,0.2849686,0.2389818,0.14968413,0.10065099,inf,inf,inf,inf,1,1,1,1,2,0,2,2,1,1,0
144149877,15615477,34.3492467,-106.8858256,-0.651043,0.6969823,-0.1214082,0.0012156666,-0.0008904127,0.0,-0.026374644,-0.0036856392,-0.014365728,-0.009594037,-0.02239259,0.01820406,0.12195557,-0.0046468847,-0.017835082,-0.0033584123,-0.09156642,1476.9989,0.10324863,0.014365728,0.27398407,0.23725854,0.14535734,0.09994485,inf,inf,inf,inf,1,1,1,1,2,0,2,2,1,1,0
144245878,15615477,34.3492467,-106.8858256,-0.65379196,0.6963075,-0.12131768,0.0012156666,-0.0008904127,0.0,-0.026703903,-0.0036903608,-0.013885371,-0.008268605,-0.02239259,0.01820406,0.12195557,-0.011003101,0.013094954,-0.013446923,-0.09145889,1476.9989,0.10802061,0.013885371,0.2847534,0.23954947,0.14962451,0.10078813,inf,inf,inf,inf,1,1,1,1,2,0,2,2,1,1,0
144350678,15615477,34.3492467,-106.8858256,-0.65708035,0.69578123,-0.119582266,0.0012156666,-0.0008904127,0.0,-0.027068885,-0.004169931,-0.013727835,-0.005684547,-0.02239259,0.01820406,0.12195557,0.05842062,-0.028588641,0.07609271,-0.09147434,1476.9989,0.1101903,0.013727835,0.27393064,0.23778038,0.14539331,0.100066714,inf,inf,inf,inf,1,1,1,1,2,0,2,2,1,1,0
144453088,15615477,34.3492467,-106.8858256,-0.6602144,0.69535625,-0.11990729,0.0012156666,-0.0008904127,0.0,-0.026677646,-0.004984114,-0.013800276,-0.0057830205,-0.02239259,0.01820406,0.12195557,-0.056768782,0.038655207,-0.057336513,-0.09139475,1476.9989,0.1,0.013800276,0.28590426,0.23914595,0.15015392,0.100680284,inf,inf,inf,inf,1,1,1,1,2,0,2,2,1,1,0
144557104,15615477,34.3492467,-106.8858256,-0.66414195,0.6949297,-0.12281563,0.0012156666,-0.0008904127,0.0,-0.02776359,-0.0049340767,-0.014651114,-0.009019745,-0.02239259,0.01820406,0.12195557,0.016926099,0.0148388175,-0.015776735,-0.09120829,1476.9989,0.100072,0.014651114,0.27468523,0.23889475,0.14575644,0.1003591,inf,inf,inf,inf,1,1,1,1,2,0,2,2,1,1,0
144653080,15615477,34.3492467,-106.8858256,-0.66763014,0.69460064,-0.12620732,0.0012156666,-0.0008904127,0.0,-0.027769316,-0.0053970115,-0.01530777,-0.012245471,-0.02239259,0.01820406,0.12195557,0.044450887,-0.021041326,0.0929394,-0.09098068,1476.9989,0.10346369,0.01530777,0.28540543,0.23940465,0.14999245,0.10076767,inf,inf,inf,inf,1,1,1,1,2,0,2,2,1,1,0
144757077,15615477,34.3492467,-106.8858256,-0.67145723,0.6940867,-0.13232043,0.0012156666,-0.0008904127,0.0,-0.028565595,-0.0054902914,-0.016312702,-0.017957242,-0.02239259,0.01820406,0.12195557,-0.018988345,0.013043261,-0.039238542,-0.09082295,1476.9989,0.1095768,0.016312702,0.27440605,0.23764825,0.14567192,0.10005109,inf,inf,inf,inf,1,1,1,1,2,0,2,2,1,1,0
144861077,15615477,34.3492467,-106.8858256,-0.6750872,0.6935829,-0.13661924,0.0012156666,-0.0008904127,0.0,-0.028051516,-0.0059319525,-0.017299848,-0.021258555,-0.02239259,0.01820406,0.12195557,0.038437072,-0.008699411,-0.040778983,-0.09079754,1476.9989,0.113875605,0.017299848,0.28613582,0.2388347,0.15030563,0.10064057,inf,inf,inf,inf,1,1,1,1,2,0,2,2,1,1,0
144957084,15615477,34.3492467,-106.8858256,-0.67867005,0.69326067,-0.13970906,0.0012156666,-0.0008904127,0.0,-0.028444864,-0.0058073015,-0.01775278,-0.022646941,-0.02239259,0.01820406,0.12195557,-0.06481766,0.046304453,-0.01720409,-0.090610504,1476.9989,0.11696542,0.01775278,0.27425146,0.23816934,0.14563553,0.10017251,inf,inf,inf,inf,1,1,1,1,2,0,2,2,1,1,0
145061103,15615477,34.3492467,-106.8858256,-0.68219346,0.6928353,-0.14274722,0.0012156666,-0.0008904127,0.0,-0.026572423,-0.006600425,-0.018185858,-0.023640454,-0.02239259,0.01820406,0.12195557,-0.09968466,0.042961545,0.019598022,-0.09051711,1476.9989,0.12000359,0.018185858,0.2859788,0.23936413,0.15026885,0.10076517,inf,inf,inf,inf,1,1,1,1,2,0,2,2,1,1,0
145165077,15615477,34.3492467,-106.8858256,-0.6855084,0.69166,-0.14350179,0.0012156666,-0.0008904127,0.0,-0.030946385,-0.006177749,-0.01813974,-0.021881089,-0.02239259,0.01820406,0.12195557,-0.07162056,0.054396432,-0.028942773,-0.09040263,1476.9989,0.12075815,0.01813974,0.27493265,0.23761149,0.1459462,0.10005307,inf,inf,inf,inf,1,1,1,1,2,0,2,2,1,1,0
145261078,15615477,34.3492467,-106.8858256,-0.68838435,0.69060886,-0.14455536,0.0012156666,-0.0008904127,0.0,-0.02682797,-0.0077844593,-0.016976526,-0.019706512,-0.02239259,0.01820406,0.12195557,-0.0681458,0.13275641,-0.019623844,-0.0903965,1476.9989,0.121811725,0.016976526,0.28577098,0.23818415,0.15022555,0.1004685,inf,inf,inf,inf,1,1,1,1,2,0,2,2,1,1,0
145365093,15615477,34.3492467,-106.8858256,-0.6916023,0.6889577,-0.14475888,0.0012156666,-0.0008904127,0.0,-0.029647252,-0.009338813,-0.017571408,-0.018513924,-0.02239259,0.01820406,0.12195557,-0.07532654,0.014336125,-0.15757369,-0.09000647,1476.9989,0.122015245,0.017571408,0.27476767,0.23813818,0.1459144,0.10017961,inf,inf,inf,inf,1,1,1,1,2,0,2,2,1,1,0
145469104,15615477,34.3492467,-106.8858256,-0.69484603,0.68739843,-0.14661215,0.0012156666,-0.0008904127,0.0,-0.027331201,-0.010750324,-0.016030407,-0.017038776,-0.02239259,0.01820406,0.12195557,0.3349321,-0.039497986,0.07923144,-0.08987585,1476.9989,0.12386852,0.016030407,0.2865307,0.23933536,0.1505467,0.10077288,inf,inf,inf,inf,1,1,1,1,2,0,2,2,1,1,0
145573119,15615477,34.3492467,-106.8858256,-0.697816,0.6857175,-0.14942503,0.0012156666,-0.0008904127,0.0,-0.028121242,-0.0115238875,-0.016829217,-0.018818453,-0.02239259,0.01820406,0.12195557,0.065553665,-0.26521733,-0.014097694,-0.089824915,1476.9989,0.12668139,0.016829217,0.27551946,0.23759355,0.14624748,0.10006587,inf,inf,inf,inf,1,1,1,1,2,0,2,2,1,1,0
145677079,15615477,34.3492467,-106.8858256,-0.70083976,0.6841743,-0.15153944,0.0012156666,-0.0008904127,0.0,-0.027251301,-0.012279873,-0.01903073,-0.021080006,-0.02239259,0.01820406,0.12195557,0.32897866,-0.18129918,-0.2908032,-0.089726456,1476.9989,0.1287958,0.01903073,0.2651516,0.23754318,0.14206944,0.09976548,inf,inf,inf,inf,1,1,1,1,2,0,2,2,1,1,0
145773080,15615477,34.3492467,-106.8858256,-0.70330113,0.68289006,-0.15513974,0.0012156666,-0.0008904127,0.0,-0.028358983,-0.0128378505,-0.017872289,-0.021564327,-0.02239259,0.01820406,0.12195557,-0.21557824,-0.056501977,-0.08115038,-0.08948872,1476.9989,0.1323961,0.017872289,0.27552715,0.23812811,0.14629894,0.10019992,inf,inf,inf,inf,1,1,1,1,2,0,2,2,1,1,0
145876290,15615477,34.3492467,-106.8858256,-0.7056788,0.6815863,-0.16010794,0.0012156666,-0.0008904127,0.0,-0.015241756,-0.013143101,-0.016822923,-0.023161111,-0.02239259,0.01820406,0.12195557,0.2697357,0.042629916,0.042901307,-0.09051839,1476.9989,0.1373643,0.016822923,0.26501608,0.23802014,0.1420651,0.099894255,inf,inf,inf,inf,1,1,1,1,2,0,2,2,1,1,0
145980281,15615477,34.3492467,-106.8858256,-0.7072153,0.6809158,-0.16503882,0.0012156666,-0.0008904127,0.0,-0.010373179,-0.009974641,-0.018401995,-0.02719777,-0.02239259,0.01820406,0.12195557,-0.014276303,-0.020348508,0.06566842,-0.08814025,1476.9989,0.14229518,0.018401995,0.27628016,0.23753552,0.14665061,0.10009193,inf,inf,inf,inf,1,1,1,1,2,0,2,2,1,1,0
146076316,15615477,34.3492467,-106.8858256,-0.7093223,0.68011016,-0.17188334,0.0012156666,-0.0008904127,0.0,-0.028097779,-0.013150557,-0.024928998,-0.037481632,-0.02239259,0.01820406,0.12195557,-0.5255073,0.20677559,-0.63504326,-0.08834363,1476.9989,0.1491397,0.024928998,0.2649937,0.23688884,0.14209273,0.09962165,inf,inf,inf,inf,1,1,1,1,2,0,2,2,1,1,0
146180292,15615477,34.3492467,-106.8858256,-0.7124654,0.67942804,-0.17546038,0.0012156666,-0.0008904127,0.0,-0.027330192,-0.0120557,-0.023069154,-0.0351964,-0.02239259,0.01820406,0.12195557,0.24459995,0.15399218,0.09527838,-0.08766139,1476.9989,0.15271676,0.023069154,0.2762651,0.23808935,0.1466822,0.1002322,inf,inf,inf,inf,1,1,1,1,2,0,2,2,1,1,0
146284320,15615477,34.3492467,-106.8858256,-0.71477634,0.67850447,-0.17909771,0.0012156666,-0.0008904127,0.0,-0.019290568,-0.013403376,-0.022601543,-0.034537174,-0.02239259,0.01820406,0.12195557,-0.012405513,-0.25808266,0.14996819,-0.08780911,1476.9989,0.15635407,0.022601543,0.2657107,0.2380439,0.14241722,0.09993383,inf,inf,inf,inf,1,1,1,1,2,0,2,2,1,1,0
146388277,15615477,34.3492467,-106.8858256,-0.7176696,0.67758924,-0.1821742,0.0012156666,-0.0008904127,0.0,-0.028578885,-0.014496783,-0.022598216,-0.033850767,-0.02239259,0.01820406,0.12195557,-0.4604427,-0.047867857,0.12193527,-0.08784616,1476.9989,0.15943056,0.022598216,0.27701992,0.23755974,0.1469953,0.100128055,inf,inf,inf,inf,1,1,1,1,2,0,2,2,1,1,0
146492288,15615477,34.3492467,-106.8858256,-0.72068316,0.67653954,-0.18283595,0.0012156666,-0.0008904127,0.0,-0.025452405,-0.01527323,-0.023545023,-0.031815637,-0.02239259,0.01820406,0.12195557,0.24388637,0.13251364,-0.39984623,-0.087730974,1476.9989,0.16009232,0.023545023,0.26656312,0.2375213,0.14279339,0.09983588,inf,inf,inf,inf,1,1,1,1,2,0,2,2,1,1,0
146588281,15615477,34.3492467,-106.8858256,-0.7227415,0.67535317,-0.18436366,0.0012156666,-0.0008904127,0.0,-0.023787413,-0.016241988,-0.022579335,-0.029446304,-0.02239259,0.01820406,0.12195557,0.07891093,-0.078599475,-0.34098485,-0.087734066,1476.9989,0.16162002,0.022579335,0.27703443,0.2381159,0.14703314,0.10027305,inf,inf,inf,inf,1,1,1,1,2,0,2,2,1,1,0
146692281,15615477,34.3492467,-106.8858256,-0.72525555,0.67432857,-0.18839638,0.0012156666,-0.0008904127,0.0,-0.013756284,-0.019125747,-0.019351538,-0.02722546,-0.02239259,0.01820406,0.12195557,-0.3752231,0.15473688,0.18684998,-0.08807297,1476.9989,0.16565275,0.019351538,0.26657835,0.2380757,0.1428272,0.09997881,inf,inf,inf,inf,1,1,1,1,2,0,2,2,1,1,0
146796281,15615477,34.3492467,-106.8858256,-0.7274742,0.6739964,-0.19078936,0.0012156666,-0.0008904127,0.0,-0.014815378,-0.0148625905,-0.021068083,-0.02834826,-0.02239259,0.01820406,0.12195557,-0.2892727,0.4395284,-0.27654138,-0.08713405,1476.9989,0.16804573,0.021068083,0.27794966,0.23759562,0.14741401,0.1001751,inf,inf,inf,inf,1,1,1,1,2,0,2,2,1,1,0
146892307,15615477,34.3492467,-106.8858256,-0.73050696,0.6734148,-0.19050814,0.0012156666,-0.0008904127,0.0,-0.02887313,-0.016618062,-0.024025476,-0.02830057,-0.02239259,0.01820406,0.12195557,0.0344486,0.053438336,-0.34549975,-0.08577642,1476.9989,0.16776451,0.024025476,0.26653433,0.23695308,0.14281863,0.09970933,inf,inf,inf,inf,1,1,1,1,2,0,2,2,1,1,0
146995477,15615477,34.3492467,-106.8858256,-0.73483896,0.6724824,-0.19029602,0.0012156666,-0.0008904127,0.0,-0.02988269,-0.01828789,-0.021852631,-0.023264881,-0.02239259,0.01820406,0.12195557,-0.058888085,0.0928349,0.2386044,-0.08600909,1476.9989,0.16755238,0.021852631,0.27790672,0.2381564,0.14741462,0.10032211,inf,inf,inf,inf,1,1,1,1,2,0,2,2,1,1,0
147100293,15615477,34.3492467,-106.8858256,-0.7388002,0.6720457,-0.19115971,0.0012156666,-0.0008904127,0.0,-0.025154231,-0.015765805,-0.020316286,-0.020356027,-0.02239259,0.01820406,0.12195557,0.14433753,0.21148095,-0.16407679,-0.085672304,1476.9989,0.16841608,0.020316286,0.26738545,0.23806244,0.1432257,0.100035645,inf,inf,inf,inf,1,1,1,1,2,0,2,2,1,1,0
147203513,15615477,34.3492467,-106.8858256,-0.74313086,0.67201936,-0.1890405,0.0012156666,-0.0008904127,0.0,-0.031907078,-0.018814418,-0.020076726,-0.016081065,-0.02239259,0.01820406,0.12195557,-0.410852,-0.23666373,0.040894866,-0.08536891,1476.9989,0.16629687,0.020076726,0.27880967,0.2375859,0.14781728,0.10023352,inf,inf,inf,inf,1,1,1,1,2,0,2,2,1,1,0
147299477,15615477,34.3492467,-106.8858256,-0.7470273,0.6719559,-0.18676673,0.0012156666,-0.0008904127,0.0,-0.030832894,-0.017241308,-0.017462572,-0.0100170905,-0.02239259,0.01820406,0.12195557,-0.7874605,-0.07563492,-0.008804213,-0.08523854,1476.9989,0.1640231,0.017462572,0.26723063,0.23694529,0.14313805,0.0997734,inf,inf,inf,inf,1,1,1,1,2,0,2,2,1,1,0
147403537,15615477,34.3492467,-106.8858256,-0.7508873,0.672209,-0.18489543,0.0012156666,-0.0008904127,0.0,-0.029514395,-0.018486375,-0.01523394,-0.0052924617,-0.02239259,0.01820406,0.12195557,0.547716,-0.289063,0.22954491,-0.08501839,1476.9989,0.16215178,0.01523394,0.2786503,0.23815538,0.14774127,0.100392796,inf,inf,inf,inf,1,1,1,1,2,0,2,2,1,1,0
147507497,15615477,34.3492467,-106.8858256,-0.7549332,0.67240715,-0.18230768,0.0012156666,-0.0008904127,0.0,-0.033408787,-0.018008675,-0.013926542,-0.0012397723,-0.02239259,0.01820406,0.12195557,-0.3349983,0.050840613,0.05471651,-0.08485887,1476.9989,0.15956405,0.013926542,0.26796347,0.23811883,0.14342421,0.10010363,inf,inf,inf,inf,1,1,1,1,2,0,2,2,1,1,0
147603477,15615477,34.3492467,-106.8858256,-0.7586425,0.6728188,-0.1793403,0.0012156666,-0.0008904127,0.0,-0.032389913,-0.01666332,-0.0131835425,0.0021532597,-0.02239259,0.01820406,0.12195557,-0.90810114,-0.07561691,-0.33533093,-0.08454344,1476.9989,0.15659666,0.0131835425,0.27851632,0.23872216,0.147666,0.100548625,inf,inf,inf,inf,1,1,1,1,2,0,2,2,1,1,0
147707500,15615477,34.3492467,-106.8858256,-0.76308846,0.6734132,-0.1781171,0.0012156666,-0.0008904127,0.0,-0.047639225,-0.017722638,-0.015070301,0.00089164183,-0.02239259,0.01820406,0.12195557,-0.27709764,0.0053307605,-0.21657874,-0.08495117,1476.9989,0.15537345,0.015070301,0.26779,0.23700261,0.14334854,0.09984766,inf,inf,inf,inf,1,1,1,1,2,0,2,2,1,1,0
147811518,15615477,34.3492467,-106.8858256,-0.7678773,0.6745796,-0.17877224,0.0012156666,-0.0008904127,0.0,-0.031826653,-0.01527145,-0.0102651,0.0043573915,-0.02239259,0.01820406,0.12195557,0.14062321,0.075489506,0.2573197,-0.08498417,1476.9989,0.1560286,0.0102651,0.2792397,0.23821345,0.14795072,0.100465864,inf,inf,inf,inf,1,1,1,1,2,0,2,2,1,1,0
147907510,15615477,34.3492467,-106.8858256,-0.7709165,0.67614955,-0.17971012,0.0012156666,-0.0008904127,0.0,-0.027140958,-0.016769642,-0.009338779,0.0036409197,-0.02239259,0.01820406,0.12195557,-0.050804783,-0.4144309,0.057265,-0.08530308,1476.9989,0.15696648,0.009338779,0.26776597,0.2375739,0.14337188,0.10001485,inf,inf,inf,inf,1,1,1,1,2,0,2,2,1,1,0
148011508,15615477,34.3492467,-106.8858256,-0.7749892,0.67826253,-0.17715329,0.0012156666,-0.0008904127,0.0,-0.036579207,-0.014818452,-0.011224834,0.0038084616,-0.02239259,0.01820406,0.12195557,-0.0040791174,0.006014185,0.099947244,-0.08508833,1476.9989,0.15440965,0.011224834,0.27921733,0.23878998,0.14795637,0.10062251,inf,inf,inf,inf,1,1,1,1,2,0,2,2,1,1,0
148115501,15615477,34.3492467,-106.8858256,-0.77887344,0.680148,-0.17788176,0.0012156666,-0.0008904127,0.0,-0.030549193,-0.013388265,-0.007665445,0.005830873,-0.02239259,0.01820406,0.12195557,-0.15464374,-0.0005583224,-0.14860003,-0.08535881,1476.9989,0.15513813,0.007665445,0.26848686,0.23707066,0.14365502,0.09992431,inf,inf,inf,inf,1,1,1,1,2,0,2,2,1,1,0
148211494,15615477,34.3492467,-106.8858256,-0.7810658,0.6817932,-0.17728485,0.0012156666,-0.0008904127,0.0,-0.013448073,-0.012120362,-0.0037595958,0.009295669,-0.02239259,0.01820406,0.12195557,0.73435247,0.03889524,0.43818793,-0.08387972,1476.9989,0.15454122,0.0037595958,0.27907702,0.23767048,0.14790364,0.10036519,inf,inf,inf,inf,1,1,1,1,2,0,2,2,1,1,0
148315477,15615477,34.3492467,-106.8858256,-0.783532,0.68325585,-0.17246109,0.0012156666,-0.0008904127,0.0,-0.025382562,-0.012554859,-0.002780635,0.013803199,-0.02239259,0.01820406,0.12195557,-0.41758552,0.31351745,0.037253592,-0.08149787,1476.9989,0.14971745,0.002780635,0.26836768,0.23763728,0.14358535,0.10007261,inf,inf,inf,inf,1,1,1,1,2,0,2,2,1,1,0
148415478,15615477,34.3492467,-106.8858256,-0.78735447,0.68419474,-0.16833343,0.0012156666,-0.0008904127,0.0,-0.035662703,-0.011477122,-0.0017296413,0.017350547,-0.02239259,0.01820406,0.12195557,-0.5841927,0.46587595,0.31075945,-0.08103492,1476.9989,0.1455898,0.0017296413,0.27894905,0.23823996,0.14782642,0.10051474,inf,inf,inf,inf,1,1,1,1,2,0,2,2,1,1,0
148518686,15615477,34.3492467,-106.8858256,-0.79020983,0.68555063,-0.16464524,0.0012156666,-0.0008904127,0.0,-0.015919425,-0.01055802,0.0019918685,0.02221073,-0.02239259,0.01820406,0.12195557,-2.2377274,0.061556626,-1.311964,-0.07892458,1476.9989,0.14190161,-0.0019918685,0.2687433,0.23845606,0.14379959,0.10028459,inf,inf,inf,inf,1,1,1,1,2,0,2,2,1,1,0
148622693,15615477,34.3492467,-106.8858256,-0.7921548,0.6868216,-0.16222107,0.0012156666,-0.0008904127,0.0,-0.027344694,-0.010422896,0.0023001558,0.021850985,-0.02239259,0.01820406,0.12195557,-1.270091,0.3350509,-1.0043393,-0.07652711,1476.9989,0.13947743,-0.0023001558,0.2802566,0.23796098,0.14840418,0.10048884,inf,inf,inf,inf,1,1,1,1,2,0,2,2,1,1,0
148726681,15615477,34.3492467,-106.8858256,-0.79542583,0.6878705,-0.16479023,0.0012156666,-0.0008904127,0.0,-0.043191634,-0.010277911,-0.0022857622,0.012379669,-0.02239259,0.01820406,0.12195557,-0.3534159,-0.051609684,-0.7672942,-0.07688404,1476.9989,0.1420466,0.0022857622,0.26958248,0.23791991,0.14413182,0.10020617,inf,inf,inf,inf,1,1,1,1,2,0,2,2,1,1,0
148830693,15615477,34.3492467,-106.8858256,-0.7984034,0.68862617,-0.16647047,0.0012156666,-0.0008904127,0.0,-0.037257448,-0.008542576,0.00031292514,0.011542253,-0.02239259,0.01820406,0.12195557,-1.4853659,1.0035052,-1.3666025,-0.07725979,1476.9989,0.14372683,-0.00031292514,0.28113803,0.23912644,0.14875837,0.10085577,inf,inf,inf,inf,1,1,1,1,2,0,2,2,1,1,0
148926677,15615477,34.3492467,-106.8858256,-0.8014347,0.68949777,-0.16852134,0.0012156666,-0.0008904127,0.0,-0.03504336,-0.009426228,0.0013627276,0.00924192,-0.02239259,0.01820406,0.12195557,-1.3000222,-0.07927283,-0.3173594,-0.07665171,1476.9989,0.1457777,-0.0013627276,0.26955608,0.23846543,0.14414413,0.10041508,inf,inf,inf,inf,1,1,1,1,2,0,2,2,1,1,0
149030677,15615477,34.3492467,-106.8858256,-0.80563706,0.6900736,-0.17140175,0.0012156666,-0.0008904127,0.0,-0.04054314,-0.008816825,0.00063159433,0.00494066,-0.02239259,0.01820406,0.12195557,-0.76231444,0.2673086,0.21301875,-0.07681221,1476.9989,0.14865813,-0.00063159433,0.2811151,0.23797992,0.14874145,0.100621894,inf,inf,inf,inf,1,1,1,1,2,0,2,2,1,1,0
149134708,15615477,34.3492467,-106.8858256,-0.80979794,0.69092876,-0.1720981,0.0012156666,-0.0008904127,0.0,-0.03448283,-0.010208779,0.0014038202,0.004726979,-0.02239259,0.01820406,0.12195557,0.279388,0.2633706,0.2312831,-0.07657677,1476.9989,0.14935446,-0.0014038202,0.27040958,0.237945,0.14448327,0.100365594,inf,inf,inf,inf,1,1,1,1,2,0,2,2,1,1,0
149230677,15615477,34.3492467,-106.8858256,-0.8134256,0.69152236,-0.17337689,0.0012156666,-0.0008904127,0.0,-0.035636835,-0.009608013,0.0004954988,0.0023415373,-0.02239259,0.01820406,0.12195557,-0.073138945,0.41422433,0.30650377,-0.07584101,1476.9989,0.15063325,-0.0004954988,0.2811005,0.23854196,0.148744,0.10082392,inf,inf,inf,inf,1,1,1,1,2,0,2,2,1,1,0
149334687,15615477,34.3492467,-106.8858256,-0.8182147,0.6924423,-0.17422964,0.0012156666,-0.0008904127,0.0,-0.040885948,-0.009480446,0.001511759,0.0024436195,-0.02239259,0.01820406,0.12195557,-0.7402975,-0.17729063,0.31440842,-0.07533373,1476.9989,0.15148601,-0.001511759,0.27040014,0.23850782,0.14448047,0.10055689,inf,inf,inf,inf,1,1,1,1,2,0,2,2,1,1,0
149438677,15615477,34.3492467,-106.8858256,-0.8231416,0.69301707,-0.17498626,0.0012156666,-0.0008904127,0.0,-0.0418218,-0.009051774,-0.0012036284,-0.0010963214,-0.02239259,0.01820406,0.12195557,-1.8918358,0.5639095,-0.9550396,-0.07545913,1476.9989,0.15224263,0.0012036284,0.28200352,0.23802617,0.1490821,0.10078029,inf,inf,inf,inf,1,1,1,1,2,0,2,2,1,1,0
149534677,15615477,34.3492467,-106.8858256,-0.8276999,0.6941283,-0.1772727,0.0012156666,-0.0008904127,0.0,-0.036660947,-0.009465198,0.0008923941,-0.0013051389,-0.02239259,0.01820406,0.12195557,0.41019306,-0.20983823,0.06852061,-0.07550576,1476.9989,0.15452906,-0.0008923941,0.270389,0.23738366,0.14447781,0.100344226,inf,inf,inf,inf,1,1,1,1,2,0,2,2,1,1,0
149637892,15615477,34.3492467,-106.8858256,-0.8325585,0.69504786,-0.17935476,0.0012156666,-0.0008904127,0.0,-0.04138415,-0.008202559,0.0022341842,-0.0018640109,-0.02239259,0.01820406,0.12195557,-0.66541684,0.34066463,0.0966973,-0.07572315,1476.9989,0.15661111,-0.0022341842,0.28199857,0.23860124,0.14909077,0.100981615,inf,inf,inf,inf,1,1,1,1,2,0,2,2,1,1,0
149742678,15615477,34.3492467,-106.8858256,-0.8367206,0.69618946,-0.18231617,0.0012156666,-0.0008904127,0.0,-0.03424939,-0.009160466,0.0031256652,-0.0034917362,-0.02239259,0.01820406,0.12195557,0.6391288,-0.77891046,-0.067611136,-0.07610834,1476.9989,0.15957254,-0.0031256652,0.27118975,0.2385688,0.14479473,0.1007108,inf,inf,inf,inf,1,1,1,1,2,0,2,2,1,1,0
149845942,15615477,34.3492467,-106.8858256,-0.8400301,0.6968896,-0.18407278,0.0012156666,-0.0008904127,0.0,-0.032191526,-0.009892747,0.003619476,-0.0042231805,-0.02239259,0.01820406,0.12195557,0.12357982,-0.69816256,0.44223848,-0.07600838,1476.9989,0.16132915,-0.003619476,0.28275397,0.23803882,0.14938349,0.10092818,inf,inf,inf,inf,1,1,1,1,2,0,2,2,1,1,0
149941877,15615477,34.3492467,-106.8858256,-0.8430174,0.6977786,-0.18841735,0.0012156666,-0.0008904127,0.0,-0.036470104,-0.0062301145,0.0043564304,-0.0071794684,-0.02239259,0.01820406,0.12195557,-1.1802135,0.055720154,-0.24298117,-0.075789005,1476.9989,0.1656737,-0.0043564304,0.27125138,0.23746249,0.14484829,0.10049118,inf,inf,inf,inf,1,1,1,1,2,0,2,2,1,1,0
150045882,15615477,34.3492467,-106.8858256,-0.8460401,0.6983232,-0.19529803,0.0012156666,-0.0008904127,0.0,-0.029971026,-0.005662188,0.0023693214,-0.014784656,-0.02239259,0.01820406,0.12195557,0.50207925,0.27702466,0.34765384,-0.07604932,1476.9989,0.1725544,-0.0023693214,0.2828165,0.23862398,0.14942713,0.10111693,inf,inf,inf,inf,1,1,1,1,2,0,2,2,1,1,0
150149921,15615477,34.3492467,-106.8858256,-0.8482153,0.69837636,-0.19938716,0.0012156666,-0.0008904127,0.0,-0.027868295,-0.007161756,0.0007050799,-0.018583944,-0.02239259,0.01820406,0.12195557,0.49328545,-0.38666442,-0.32997882,-0.07599084,1476.9989,0.17664352,-0.0007050799,0.27186543,0.23859996,0.14506005,0.10084637,inf,inf,inf,inf,1,1,1,1,2,0,2,2,1,1,0
150245897,15615477,34.3492467,-106.8858256,-0.85006845,0.69805,-0.20102775,0.0012156666,-0.0008904127,0.0,-0.02873117,-0.006438139,0.0019115462,-0.016960986,-0.02239259,0.01820406,0.12195557,0.59135395,0.092231385,-0.535449,-0.075929046,1476.9989,0.17828411,-0.0019115462,0.28263378,0.23921905,0.14932917,0.10130723,inf,inf,inf,inf,1,1,1,1,2,0,2,2,1,1,0
150349897,15615477,34.3492467,-106.8858256,-0.8524151,0.6979048,-0.2028233,0.0012156666,-0.0008904127,0.0,-0.026755393,-0.008975547,0.0056310543,-0.012945236,-0.02239259,0.01820406,0.12195557,1.0332056,-0.7255593,0.7132654,-0.07622495,1476.9989,0.18007967,-0.0056310543,0.2715918,0.23749593,0.14490487,0.100607105,inf,inf,inf,inf,1,1,1,1,2,0,2,2,1,1,0
150453892,15615477,34.3492467,-106.8858256,-0.85479075,0.6976629,-0.20346314,0.0012156666,-0.0008904127,0.0,-0.027743239,-0.008468332,0.004446907,-0.012957217,-0.02239259,0.01820406,0.12195557,0.18207002,-0.41674548,-0.117778175,-0.07653594,1476.9989,0.1807195,-0.004446907,0.28326014,0.23872548,0.14953333,0.10123773,inf,inf,inf,inf,1,1,1,1,2,0,2,2,1,1,0
150549877,15615477,34.3492467,-106.8858256,-0.8567931,0.6977898,-0.20499106,0.0012156666,-0.0008904127,0.0,-0.02485186,-0.006746491,0.0048776506,-0.01269627,-0.02239259,0.01820406,0.12195557,0.9270962,0.2684362,-0.22230838,-0.076730415,1476.9989,0.18224743,-0.0048776506,0.27147022,0.23808372,0.14485328,0.10078267,inf,inf,inf,inf,1,1,1,1,2,0,2,2,1,1,0
150653898,15615477,34.3492467,-106.8858256,-0.85897464,0.69775385,-0.20666423,0.0012156666,-0.0008904127,0.0,-0.025104014,-0.006159591,0.0064938636,-0.011132379,-0.02239259,0.01820406,0.12195557,0.0019898221,0.28474638,0.18275625,-0.07683099,1476.9989,0.18392059,-0.0064938636,0.28313518,0.23932278,0.1494664,0.10140589,inf,inf,inf,inf,1,1,1,1,2,0,2,2,1,1,0
150757877,15615477,34.3492467,-106.8858256,-0.8611142,0.69809216,-0.2058214,0.0012156666,-0.0008904127,0.0,-0.022222018,-0.005918499,0.0067503764,-0.008512408,-0.02239259,0.01820406,0.12195557,0.8738527,0.46702895,-0.03538566,-0.076837964,1476.9989,0.18307775,-0.0067503764,0.27224287,0.23759879,0.14515983,0.10070431,inf,inf,inf,inf,1,1,1,1,2,0,2,2,1,1,0
150853886,15615477,34.3492467,-106.8858256,-0.8631756,0.6982469,-0.20338754,0.0012156666,-0.0008904127,0.0,-0.022316473,-0.0059355483,0.0074032764,-0.0044559413,-0.02239259,0.01820406,0.12195557,0.38214555,-0.20622,-0.0021941857,-0.07688411,1476.9989,0.18064392,-0.0074032764,0.2830262,0.23821287,0.14943002,0.10114395,inf,inf,inf,inf,1,1,1,1,2,0,2,2,1,1,0
150957885,15615477,34.3492467,-106.8858256,-0.86606187,0.69881266,-0.20214665,0.0012156666,-0.0008904127,0.0,-0.025123017,-0.0052137487,0.009672083,-0.0004369791,-0.02239259,0.01820406,0.12195557,-0.18368194,-0.072676554,0.3111654,-0.07703001,1476.9989,0.179403,-0.009672083,0.272221,0.23819071,0.14514782,0.100862116,inf,inf,inf,inf,1,1,1,1,2,0,2,2,1,1,0
151061081,15615477,34.3492467,-106.8858256,-0.86879176,0.69907427,-0.20111248,0.0012156666,-0.0008904127,0.0,-0.017985763,-0.005580282,0.0099593885,0.00097038405,-0.02239259,0.01820406,0.12195557,0.45285022,0.15284103,0.30477467,-0.07705499,1476.9989,0.17836884,-0.0099593885,0.28392085,0.23942809,0.14976975,0.10147976,inf,inf,inf,inf,1,1,1,1,2,0,2,2,1,1,0
151165111,15615477,34.3492467,-106.8858256,-0.87084347,0.6991887,-0.20468421,0.0012156666,-0.0008904127,0.0,-0.019262346,-0.0034710483,0.011725799,-0.000762458,-0.02239259,0.01820406,0.12195557,-0.8306172,0.62656444,1.1855311,-0.07650721,1476.9989,0.18194059,-0.011725799,0.27320546,0.23770942,0.14555377,0.100774184,inf,inf,inf,inf,1,1,1,1,2,0,2,2,1,1,0
151261077,15615477,34.3492467,-106.8858256,-0.8726126,0.6991194,-0.20675944,0.0012156666,-0.0008904127,0.0,-0.021161817,-0.0060889963,0.004654266,-0.009236372,-0.02239259,0.01820406,0.12195557,0.34155706,-0.6365744,-1.1396475,-0.075807795,1476.9989,0.18401581,-0.004654266,0.28403145,0.23832206,0.14983131,0.10121092,inf,inf,inf,inf,1,1,1,1,2,0,2,2,1,1,0
151365079,15615477,34.3492467,-106.8858256,-0.8741609,0.69895285,-0.20924762,0.0012156666,-0.0008904127,0.0,-0.021232493,-0.003729089,0.008343766,-0.007021332,-0.02239259,0.01820406,0.12195557,-1.1719425,0.043019183,1.1474073,-0.07619295,1476.9989,0.18650398,-0.008343766,0.2732062,0.23824416,0.14558163,0.100916654,inf,inf,inf,inf,1,1,1,1,2,0,2,2,1,1,0
151469103,15615477,34.3492467,-106.8858256,-0.8758328,0.6984054,-0.21252835,0.0012156666,-0.0008904127,0.0,-0.022646327,-0.011943841,0.0041681197,-0.0129968785,-0.02239259,0.01820406,0.12195557,-0.7320363,-0.2714994,0.74449265,-0.07497851,1476.9989,0.1897847,-0.0041681197,0.26296723,0.23821393,0.14140715,0.100617684,inf,inf,inf,inf,1,1,1,1,2,0,2,2,1,1,0
151565082,15615477,34.3492467,-106.8858256,-0.87815005,0.69795233,-0.21690036,0.0012156666,-0.0008904127,0.0,-0.020391433,-0.01459977,0.0035412998,-0.016205316,-0.02239259,0.01820406,0.12195557,0.7698116,-1.2186834,1.5151392,-0.074338,1476.9989,0.19415674,-0.0035412998,0.2733024,0.23884404,0.14563657,0.1010784,inf,inf,inf,inf,1,1,1,1,2,0,2,2,1,1,0
151669098,15615477,34.3492467,-106.8858256,-0.8804565,0.697075,-0.21957065,0.0012156666,-0.0008904127,0.0,-0.019123306,-0.011558962,0.0027389347,-0.017282387,-0.02239259,0.01820406,0.12195557,-0.04073186,0.39210528,1.5419645,-0.073865466,1476.9989,0.19682702,-0.0027389347,0.28506738,0.23837937,0.15027392,0.101269305,inf,inf,inf,inf,1,1,1,1,2,0,2,2,1,1,0
151773077,15615477,34.3492467,-106.8858256,-0.8830015,0.6960204,-0.21949326,0.0012156666,-0.0008904127,0.0,-0.021722784,-0.015158967,-0.0013793831,-0.018946586,-0.02239259,0.01820406,0.12195557,-0.70887244,-0.46304986,-0.14081918,-0.07361949,1476.9989,0.19674963,0.0013793831,0.27414674,0.2383602,0.14595827,0.100973405,inf,inf,inf,inf,1,1,1,1,2,0,2,2,1,1,0
151869107,15615477,34.3492467,-106.8858256,-0.8851345,0.6948583,-0.22013378,0.0012156666,-0.0008904127,0.0,-0.020081993,-0.01509997,-0.0007302475,-0.017214345,-0.02239259,0.01820406,0.12195557,-1.2171766,-0.1783873,-0.5568013,-0.0737082,1476.9989,0.19739014,0.0007302475,0.26301312,0.23771462,0.1414455,0.100500256,inf,inf,inf,inf,1,1,1,1,2,0,2,2,1,1,0
151973085,15615477,34.3492467,-106.8858256,-0.8875484,0.6935506,-0.22372401,0.0012156666,-0.0008904127,0.0,-0.015946966,-0.015229436,-0.0040936414,-0.022389494,-0.02239259,0.01820406,0.12195557,0.13755801,0.7757318,-1.5683007,-0.07368669,1476.9989,0.20098037,0.0040936414,0.27423802,0.23895814,0.1460323,0.10112784,inf,inf,inf,inf,1,1,1,1,2,0,2,2,1,1,0
152077111,15615477,34.3492467,-106.8858256,-0.8897761,0.6919207,-0.22612548,0.0012156666,-0.0008904127,0.0,-0.015873516,-0.016880082,0.0011993509,-0.017276203,-0.02239259,0.01820406,0.12195557,-0.22933514,0.20587155,1.6563398,-0.07358096,1476.9989,0.20338184,-0.0011993509,0.2638164,0.2372327,0.1417629,0.10038888,inf,inf,inf,inf,1,1,1,1,2,0,2,2,1,1,0
152181083,15615477,34.3492467,-106.8858256,-0.89272285,0.69053316,-0.22921763,0.0012156666,-0.0008904127,0.0,-0.015301247,-0.016498152,-0.003479398,-0.022716932,-0.02239259,0.01820406,0.12195557,0.23611234,0.09767433,-1.6527356,-0.073903285,1476.9989,0.206474,0.003479398,0.2750851,0.23847014,0.14633824,0.101002485,inf,inf,inf,inf,1,1,1,1,2,0,2,2,1,1,0
152277083,15615477,34.3492467,-106.8858256,-0.8949807,0.6891387,-0.2300407,0.0012156666,-0.0008904127,0.0,-0.011580026,-0.015703654,0.0013166629,-0.016628979,-0.02239259,0.01820406,0.12195557,-0.6682712,0.14682244,0.8871937,-0.07402559,1476.9989,0.20729706,-0.0013166629,0.263897,0.23781247,0.14180847,0.10052016,inf,inf,inf,inf,1,1,1,1,2,0,2,2,1,1,0
152381078,15615477,34.3492467,-106.8858256,-0.89736164,0.68767494,-0.22723895,0.0012156666,-0.0008904127,0.0,-0.006542599,-0.014111715,0.004944774,-0.0082148705,-0.02239259,0.01820406,0.12195557,1.5615284,0.23396607,1.1334468,-0.07393218,1476.9989,0.20449531,-0.004944774,0.27516562,0.23901603,0.14635794,0.10111498,inf,inf,inf,inf,1,1,1,1,2,0,2,2,1,1,0
152484287,15615477,34.3492467,-106.8858256,-0.89918417,0.6862022,-0.22451322,0.0012156666,-0.0008904127,0.0,-0.004052423,-0.016534438,0.003910665,-0.0052997572,-0.02239259,0.01820406,0.12195557,-0.6645319,-0.03535034,0.8101322,-0.07378695,1476.9989,0.20176959,-0.003910665,0.26492858,0.2389498,0.14227498,0.10079276,inf,inf,inf,inf,1,1,1,1,2,0,2,2,1,1,0
152580277,15615477,34.3492467,-106.8858256,-0.9009578,0.6848703,-0.2208317,0.0012156666,-0.0008904127,0.0,-0.004120113,-0.018413637,0.0014834085,-0.0032016793,-0.02239259,0.01820406,0.12195557,0.23152916,-0.33538437,0.051355805,-0.07289439,1476.9989,0.19808808,-0.0014834085,0.27536622,0.23954886,0.14648081,0.10122371,inf,inf,inf,inf,1,1,1,1,2,0,2,2,1,1,0
152684310,15615477,34.3492467,-106.8858256,-0.90282935,0.683424,-0.21856397,0.0012156666,-0.0008904127,0.0,-0.0047650817,-0.018979223,-0.0008149033,-0.0029069365,-0.02239259,0.01820406,0.12195557,-0.6013375,-0.1175515,-0.7436223,-0.073178664,1476.9989,0.19582033,0.0008149033,0.26490402,0.23772085,0.14225964,0.10046194,inf,inf,inf,inf,1,1,1,1,2,0,2,2,1,1,0
152788305,15615477,34.3492467,-106.8858256,-0.9044868,0.6824281,-0.21833003,0.0012156666,-0.0008904127,0.0,-0.0013382399,-0.019485978,0.007898113,0.0058227684,-0.02239259,0.01820406,0.12195557,0.91895217,-0.49499512,0.31814635,-0.0732976,1476.9989,0.19558638,-0.007898113,0.2762325,0.23892888,0.14685242,0.10107686,inf,inf,inf,inf,1,1,1,1,2,0,2,2,1,1,0
152884312,15615477,34.3492467,-106.8858256,-0.9057626,0.6814083,-0.2156882,0.0012156666,-0.0008904127,0.0,0.0014489603,-0.018568112,0.0083760405,0.008359972,-0.02239259,0.01820406,0.12195557,1.1243579,-0.62966514,-0.23438817,-0.07348879,1476.9989,0.19294456,-0.0083760405,0.26495838,0.23825192,0.14226058,0.10057312,inf,inf,inf,inf,1,1,1,1,2,0,2,2,1,1,0
152988316,15615477,34.3492467,-106.8858256,-0.9074487,0.6804574,-0.21391556,0.0012156666,-0.0008904127,0.0,0.0010994127,-0.016941749,0.019222755,0.019744301,-0.02239259,0.01820406,0.12195557,1.7487785,0.39007056,2.0188801,-0.07350586,1476.9989,0.19117191,-0.019222755,0.27629372,0.23946913,0.14684096,0.10117217,inf,inf,inf,inf,1,1,1,1,2,0,2,2,1,1,0
153092281,15615477,34.3492467,-106.8858256,-0.9086471,0.67910415,-0.2088041,0.0012156666,-0.0008904127,0.0,-0.00079501397,-0.015133193,0.022546098,0.026148302,-0.02239259,0.01820406,0.12195557,0.99763554,1.0754411,1.0790126,-0.073515065,1476.9989,0.18606046,-0.022546098,0.26585296,0.23770382,0.14259528,0.10042961,inf,inf,inf,inf,1,1,1,1,2,0,2,2,1,1,0
153188310,15615477,34.3492467,-106.8858256,-0.9093013,0.6774023,-0.20385206,0.0012156666,-0.0008904127,0.0,-0.00080996315,-0.020916281,0.025074396,0.030729827,-0.02239259,0.01820406,0.12195557,-0.31579688,-1.092156,0.048510093,-0.073904485,1476.9989,0.18110842,-0.025074396,0.276335,0.23829485,0.14682397,0.1008562,inf,inf,inf,inf,1,1,1,1,2,0,2,2,1,1,0
153292290,15615477,34.3492467,-106.8858256,-0.90938705,0.6749546,-0.20117974,0.0012156666,-0.0008904127,0.0,0.0141780935,-0.030677171,0.021844558,0.026729824,-0.02239259,0.01820406,0.12195557,-0.3478842,1.0107257,-0.4487164,-0.07291692,1476.9989,0.1784361,-0.021844558,0.26577082,0.23823321,0.14248668,0.10052562,inf,inf,inf,inf,1,1,1,1,2,0,2,2,1,1,0
